{
"type": "FeatureCollection",
"name": "oulu_filtered_pois",
"crs": { "type": "name", "properties": { "name": "urn:ogc:def:crs:OGC:1.3:CRS84" } },
"features": [
{ "type": "Feature", "properties": { "id": 21201, "name": "vt4_Oulu_Intiö_LML", "longitude": 25.508104, "latitude": 65.020043 }, "geometry": { "type": "Point", "coordinates": [ 25.508104, 65.020043 ] } },
{ "type": "Feature", "properties": { "id": 21202, "name": "Vt20_Oulu_Honkimaa_Flex", "longitude": 25.716369, "latitude": 65.108883 }, "geometry": { "type": "Point", "coordinates": [ 25.716369, 65.108883 ] } },
{ "type": "Feature", "properties": { "id": 21203, "name": "Vt4_Oulu_Kontinkangas_Flex", "longitude": 25.505512, "latitude": 65.007569 }, "geometry": { "type": "Point", "coordinates": [ 25.505512, 65.007569 ] } },
{ "type": "Feature", "properties": { "id": 21204, "name": "vt4_Oulu_Kaakkuri_LML", "longitude": 25.515572, "latitude": 64.962796 }, "geometry": { "type": "Point", "coordinates": [ 25.515572, 64.962796 ] } },
{ "type": "Feature", "properties": { "id": 21205, "name": "vt4_Oulu_Välivainio", "longitude": 25.488916, "latitude": 65.034668 }, "geometry": { "type": "Point", "coordinates": [ 25.488916, 65.034668 ] } },
{ "type": "Feature", "properties": { "id": 21206, "name": "vt4_Oulu_Niittyaro", "longitude": 25.461919, "latitude": 65.046885 }, "geometry": { "type": "Point", "coordinates": [ 25.461919, 65.046885 ] } },
{ "type": "Feature", "properties": { "id": 21207, "name": "vt4_Oulu_Kuivasranta", "longitude": 25.442411, "latitude": 65.070952 }, "geometry": { "type": "Point", "coordinates": [ 25.442411, 65.070952 ] } },
{ "type": "Feature", "properties": { "id": 21208, "name": "vt4_Oulu_Hiironen", "longitude": 25.505204, "latitude": 64.985372 }, "geometry": { "type": "Point", "coordinates": [ 25.505204, 64.985372 ] } },
{ "type": "Feature", "properties": { "id": 21209, "name": "vt4_Oulu_Laanila", "longitude": 25.505316, "latitude": 65.028146 }, "geometry": { "type": "Point", "coordinates": [ 25.505316, 65.028146 ] } },
{ "type": "Feature", "properties": { "id": 21299, "name": "Tobo testipiste", "longitude": 25.468886, "latitude": 64.945424 }, "geometry": { "type": "Point", "coordinates": [ 25.468886, 64.945424 ] } },
{ "type": "Feature", "properties": { "id": 24201, "name": "vt4_Oulu_Mäntylä", "longitude": 25.509072, "latitude": 64.979487 }, "geometry": { "type": "Point", "coordinates": [ 25.509072, 64.979487 ] } },
{ "type": "Feature", "properties": { "id": 24206, "name": "vt4_Oulu_Ouluntulli", "longitude": 25.532678, "latitude": 64.946703 }, "geometry": { "type": "Point", "coordinates": [ 25.532678, 64.946703 ] } },
{ "type": "Feature", "properties": { "id": 24207, "name": "vt4_Oulu_Haukipudas", "longitude": 25.425123, "latitude": 65.174538 }, "geometry": { "type": "Point", "coordinates": [ 25.425123, 65.174538 ] } },
{ "type": "Feature", "properties": { "id": 24223, "name": "vt20_Kiiminki", "longitude": 25.63996, "latitude": 65.065491 }, "geometry": { "type": "Point", "coordinates": [ 25.63996, 65.065491 ] } },
{ "type": "Feature", "properties": { "id": 24228, "name": "st847_Haukipudas", "longitude": 25.372514, "latitude": 65.120244 }, "geometry": { "type": "Point", "coordinates": [ 25.372514, 65.120244 ] } },
{ "type": "Feature", "properties": { "id": 24231, "name": "vt4_Oulu_Kello", "longitude": 25.429964, "latitude": 65.120506 }, "geometry": { "type": "Point", "coordinates": [ 25.429964, 65.120506 ] } },
{ "type": "Feature", "properties": { "id": 24237, "name": "vt4_Oulu_Intiö", "longitude": 25.508377, "latitude": 65.019337 }, "geometry": { "type": "Point", "coordinates": [ 25.508377, 65.019337 ] } },
{ "type": "Feature", "properties": { "id": 24238, "name": "vt4_Oulu_Isko", "longitude": 25.462881, "latitude": 65.046788 }, "geometry": { "type": "Point", "coordinates": [ 25.462881, 65.046788 ] } },
{ "type": "Feature", "properties": { "id": 24239, "name": "st815_Lentokentäntie", "longitude": 25.49017, "latitude": 64.949734 }, "geometry": { "type": "Point", "coordinates": [ 25.49017, 64.949734 ] } },
{ "type": "Feature", "properties": { "id": 24244, "name": "vt4_Oulu_Laanila", "longitude": 25.494083, "latitude": 65.032306 }, "geometry": { "type": "Point", "coordinates": [ 25.494083, 65.032306 ] } },
{ "type": "Feature", "properties": { "id": 24246, "name": "vt4_Oulu_Kuivasjärvi", "longitude": 25.442274, "latitude": 65.071121 }, "geometry": { "type": "Point", "coordinates": [ 25.442274, 65.071121 ] } },
{ "type": "Feature", "properties": { "id": 24247, "name": "st847_Oulunlahti", "longitude": 25.492182, "latitude": 64.970414 }, "geometry": { "type": "Point", "coordinates": [ 25.492182, 64.970414 ] } },
{ "type": "Feature", "properties": { "id": 24248, "name": "st815_Oulunsalo", "longitude": 25.423416, "latitude": 64.937519 }, "geometry": { "type": "Point", "coordinates": [ 25.423416, 64.937519 ] } },
{ "type": "Feature", "properties": { "id": 24249, "name": "st815_Lunki", "longitude": 25.398064, "latitude": 64.933641 }, "geometry": { "type": "Point", "coordinates": [ 25.398064, 64.933641 ] } },
{ "type": "Feature", "properties": { "id": 24250, "name": "vt4_Oulu_Kontinkangas", "longitude": 25.506412, "latitude": 65.008548 }, "geometry": { "type": "Point", "coordinates": [ 25.506412, 65.008548 ] } },
{ "type": "Feature", "properties": { "id": 24251, "name": "vt4_Oulu_Lintula", "longitude": 25.506002, "latitude": 64.995387 }, "geometry": { "type": "Point", "coordinates": [ 25.506002, 64.995387 ] } },
{ "type": "Feature", "properties": { "id": 24254, "name": "vt20_Rusko2", "longitude": 25.607712, "latitude": 65.054793 }, "geometry": { "type": "Point", "coordinates": [ 25.607712, 65.054793 ] } },
{ "type": "Feature", "properties": { "id": 24256, "name": "vt22_Oulu_Kaukovainio", "longitude": 25.529079, "latitude": 64.994916 }, "geometry": { "type": "Point", "coordinates": [ 25.529079, 64.994916 ] } },
{ "type": "Feature", "properties": { "id": 24257, "name": "vt22_Oulu_Iinatti", "longitude": 25.571824, "latitude": 64.978763 }, "geometry": { "type": "Point", "coordinates": [ 25.571824, 64.978763 ] } }
]
}
